[
    {
        "id": 1,
        "name": "بیمارستان امام خمینی (ره)",
        "address": "بروجرد، خیابان سید مصطفی خمینی، گیوه‌کش، محله پدافند",
        "phone": "۰۶۶۴۲۵۰۳۰۵۴",
        "hours": "شبانه‌روزی",
        "services": "بیمارستان عمومی با بخش آزمایشگاه، اورژانس و خدمات پایه درمانی",
        "lat": 33.9011,
        "lng": 48.7475,
        "type": "عمومی"
    },
    {
        "id": 2,
        "name": "بیمارستان آیت‌الله بروجردی",
        "address": "بروجرد، بلوار شهید فخری‌زاده، شهرک مهرگان",
        "phone": "۰۶۶۴۲۳۴۷۶۰۳",
        "hours": "شبانه‌روزی",
        "services": "بیمارستان فوق تخصصی با بخش‌های ICU، آنکولوژی، گوارش و ...",
        "lat": 33.93,
        "lng": 48.73,
        "type": "فوق تخصصی"
    },
    {
        "id": 3,
        "name": "بیمارستان تامین اجتماعی کوثر",
        "address": "بروجرد، میدان امام خمینی، محله امام خمینی",
        "phone": "۰۶۶۴۲۴۴۹۹۷۵",
        "hours": "۷ صبح تا ۱۰ شب",
        "services": "بیمارستان عمومی با بخش‌های داخلی، جراحی و اورژانس",
        "lat": 33.90,
        "lng": 48.75,
        "type": "عمومی"
    },
    {
        "id": 4,
        "name": "بیمارستان شهید دکتر چمران",
        "address": "بروجرد، خیابان دکتر فاطمی، میدان پرستار",
        "phone": "۰۶۶۴۲۵۱۴۰۰۱ - ۰۶۶۴۲۵۱۴۰۰۵",
        "hours": "شبانه‌روزی",
        "services": "بیمارستان دولتی با بخش‌های کامل شامل داخلی، جراحی عمومی، اطفال، قلب و عروق، زنان و زایمان، ICU، NICU",
        "lat": 33.933,
        "lng": 48.747,
        "type": "دولتی"
    }
]